id,street_address,opa_account_num,lon,lat
1,1234 market st,883309050,-75.16097658476633,39.95166165567195
2,200 s broad st,883701000,-75.1649086904416,39.94908944737747
3,130 n 5th st,,-75.14850348882966,39.9525206596661
4,400 locust st,051133966,-75.14855895035714,39.94597712471137
5,500 chestnut st,781050600,-75.15014814663631,39.94835550191527
6,8 asd;fas ave,,,
7,4th and market st,,-75.1472581669902,39.95037181308283
